City_ID,City,Lat,Lon,Max Temp,Humidity,Cloudiness,Wind Speed,Country,Date
0,thompson,55.7435,-97.8558,10.09,87.0,75.0,1.54,CA,1690364418.0
1,cidade velha,14.9167,-23.6167,27.26,78.0,75.0,8.23,CV,1690364419.0
2,ilulissat,69.2167,-51.1,2.01,100.0,20.0,1.54,GL,1690364419.0
3,adamstown,-25.066,-130.1015,20.36,70.0,81.0,11.27,PN,1690364420.0
4,nago,26.5881,127.9761,29.47,86.0,100.0,5.72,JP,1690364421.0
5,west island,-12.1568,96.8225,26.99,74.0,40.0,8.75,CC,1690364421.0
6,blackmans bay,-43.0167,147.3167,12.07,82.0,100.0,2.1,AU,1690364422.0
7,gorontalo,0.5412,123.0595,26.09,84.0,17.0,2.58,ID,1690364423.0
8,hawaiian paradise park,19.5933,-154.9731,24.29,96.0,100.0,2.57,US,1690364423.0
9,st. john's,47.5649,-52.7093,20.08,88.0,40.0,4.12,CA,1690364216.0
10,tiksi,71.6872,128.8694,6.36,73.0,20.0,1.2,RU,1690364424.0
11,ad dilam,23.9915,47.1627,45.23,6.0,100.0,0.57,SA,1690364425.0
12,constantia,44.1833,28.65,36.5,51.0,14.0,10.96,RO,1690364425.0
13,nyurba,63.2842,118.3319,22.84,53.0,100.0,3.19,RU,1690364426.0
14,sitka,57.0531,-135.33,14.94,82.0,100.0,4.12,US,1690364426.0
15,murghob,38.1702,73.9667,20.39,22.0,85.0,1.6,TJ,1690364427.0
17,hilo,19.7297,-155.09,24.41,100.0,100.0,2.57,US,1690364429.0
18,grytviken,-54.2811,-36.5092,-1.85,86.0,83.0,4.39,GS,1690364430.0
19,coeur d'alene,47.6777,-116.7805,14.12,54.0,0.0,0.0,US,1690364431.0
20,yellowknife,62.456,-114.3525,18.29,55.0,100.0,6.17,CA,1690364213.0
21,waitangi,-43.9535,-176.5597,9.98,71.0,100.0,11.7,NZ,1690364433.0
22,mbandaka,0.0487,18.2603,30.32,52.0,54.0,0.85,CD,1690364434.0
23,aykhal,66.0,111.5,20.27,52.0,100.0,5.77,RU,1690364409.0
24,edinburgh of the seven seas,-37.0676,-12.3116,9.66,61.0,100.0,8.34,SH,1690364435.0
25,iqaluit,63.7506,-68.5145,5.85,100.0,75.0,0.0,CA,1690364436.0
26,aldama,22.9167,-98.0667,24.72,91.0,99.0,1.63,MX,1690364437.0
27,kilindoni,-7.9139,39.6668,24.71,74.0,52.0,7.93,TZ,1690364437.0
28,angatuba,-23.4897,-48.4128,14.66,66.0,26.0,0.83,BR,1690364438.0
29,invercargill,-46.4,168.35,5.34,94.0,100.0,8.4,NZ,1690364439.0
30,pocito,-31.6833,-68.5833,9.89,52.0,0.0,2.9,AR,1690364440.0
31,ribeira grande,38.5167,-28.7,22.65,78.0,20.0,1.34,PT,1690364440.0
32,avarua,-21.2078,-159.775,21.03,78.0,20.0,2.06,CK,1690364441.0
33,togur,58.3631,82.8265,23.11,60.0,88.0,4.02,RU,1690364441.0
34,ushuaia,-54.8,-68.3,-0.19,80.0,0.0,8.75,AR,1690364442.0
35,alice springs,-23.7,133.8833,19.75,34.0,100.0,3.09,AU,1690364442.0
36,papatowai,-46.5619,169.4708,9.0,71.0,100.0,6.68,NZ,1690364443.0
37,port-aux-francais,-49.35,70.2167,3.45,75.0,85.0,13.82,TF,1690364443.0
38,colonia,50.9333,6.95,19.68,64.0,75.0,3.09,DE,1690364444.0
39,albany,42.6001,-73.9662,18.23,94.0,0.0,0.45,US,1690364225.0
40,puerto baquerizo moreno,-0.9,-89.6,24.58,81.0,85.0,4.71,EC,1690364445.0
42,leua,48.2156,18.6071,18.61,72.0,100.0,7.06,SK,1690364446.0
44,badger,64.8,-147.5333,20.93,84.0,0.0,0.0,US,1690364447.0
45,altay,47.8667,88.1167,33.39,16.0,66.0,8.16,CN,1690364448.0
46,balsas,-7.5325,-46.0356,20.72,52.0,5.0,1.72,BR,1690364448.0
47,bredasdorp,-34.5322,20.0403,14.1,64.0,99.0,0.86,ZA,1690364449.0
48,saipan,15.1355,145.701,26.39,100.0,75.0,7.2,MP,1690364449.0
49,laguna,38.421,-121.4238,24.14,63.0,0.0,3.6,US,1690364450.0
50,uturoa,-16.7333,-151.4333,25.85,85.0,23.0,2.67,PF,1690364455.0
51,antsiranana,-12.2787,49.2917,28.42,47.0,40.0,7.2,MG,1690364456.0
52,makokou,0.5738,12.8642,25.49,77.0,98.0,1.76,GA,1690364457.0
53,lihue,21.9789,-159.3672,25.77,86.0,100.0,7.2,US,1690364457.0
54,talnakh,69.4865,88.3972,26.23,41.0,6.0,1.58,RU,1690364458.0
55,stanley,54.868,-1.6985,19.73,70.0,20.0,6.69,GB,1690364458.0
56,gerash,27.6652,54.1371,38.08,23.0,73.0,3.66,IR,1690364459.0
58,zimmerman,45.4433,-93.59,21.91,93.0,75.0,3.09,US,1690364460.0
59,nadi,-17.8,177.4167,22.0,88.0,75.0,3.09,FJ,1690364460.0
60,lebu,-37.6167,-73.65,7.19,85.0,23.0,1.44,CL,1690364461.0
61,kasongo,-4.45,26.6667,35.38,16.0,8.0,2.96,CD,1690364461.0
62,longyearbyen,78.2186,15.6401,11.91,54.0,0.0,3.6,SJ,1690364462.0
64,east london,-33.0153,27.9116,17.52,59.0,0.0,2.06,ZA,1690364463.0
65,kahriz,34.3838,47.0553,35.4,11.0,0.0,2.71,IR,1690364463.0
66,margate,51.3813,1.3862,20.49,60.0,8.0,1.34,GB,1690364464.0
67,el bagre,7.5927,-74.8086,23.8,100.0,100.0,0.12,CO,1690364464.0
68,keflavik,64.0049,-22.5624,13.95,76.0,100.0,4.63,IS,1690364465.0
69,hermanus,-34.4187,19.2345,11.56,69.0,100.0,3.17,ZA,1690364465.0
70,gumel,12.6279,9.3912,33.03,42.0,78.0,4.25,NG,1690364466.0
71,nirasaki,35.7,138.45,27.32,70.0,95.0,0.4,JP,1690364466.0
73,tionk essil,12.7856,-16.5217,28.66,74.0,89.0,2.97,SN,1690364467.0
74,lucas,41.6501,-83.6666,19.47,89.0,0.0,2.57,US,1690364468.0
75,udachny,66.4167,112.4,21.92,49.0,100.0,1.76,RU,1690364468.0
76,ulladulla,-35.35,150.4667,10.32,79.0,55.0,2.46,AU,1690364469.0
77,kapa'a,22.0752,-159.319,26.18,89.0,100.0,7.2,US,1690364470.0
78,iskateley,67.6803,53.1512,23.26,51.0,92.0,2.38,RU,1690364470.0
79,isafjordur,66.0755,-23.124,10.02,62.0,20.0,3.09,IS,1690364471.0
80,remire-montjoly,4.9167,-52.2667,24.02,100.0,75.0,0.51,GF,1690364471.0
81,utrik,11.2278,169.8474,28.26,82.0,99.0,8.61,MH,1690364472.0
82,puerto ayora,-0.7393,-90.3518,24.75,94.0,28.0,0.45,EC,1690364472.0
83,puerto natales,-51.7236,-72.4875,-3.38,97.0,59.0,1.28,CL,1690364473.0
84,port augusta,-32.5,137.7667,11.93,52.0,0.0,1.42,AU,1690364473.0
85,lu-uk,5.9684,121.3122,27.58,83.0,18.0,4.43,PH,1690364474.0
86,jamestown,42.097,-79.2353,20.77,99.0,100.0,1.54,US,1690364474.0
87,klyuchi,52.2667,79.1667,30.96,22.0,100.0,3.4,RU,1690364475.0
88,christchurch,-43.5333,172.6333,4.15,83.0,74.0,1.03,NZ,1690364299.0
89,salinas,36.6777,-121.6555,18.45,81.0,0.0,3.6,US,1690364476.0
90,iskushuban,10.2837,50.23,35.25,29.0,50.0,13.81,SO,1690364476.0
91,suva,-18.1416,178.4415,20.71,94.0,75.0,2.57,FJ,1690364477.0
92,enewetak,11.3474,162.3373,28.49,74.0,86.0,7.18,MH,1690364477.0
93,ushtobe,45.2514,77.9838,41.47,7.0,0.0,5.5,KZ,1690364478.0
94,happy valley-goose bay,53.3168,-60.3315,17.17,88.0,20.0,3.09,CA,1690364478.0
95,winnemucca,40.973,-117.7357,19.03,18.0,0.0,1.54,US,1690364479.0
96,rinconada,19.35,-96.5167,24.03,90.0,97.0,2.18,MX,1690364480.0
97,el nido,11.1858,119.3956,28.35,83.0,100.0,9.56,PH,1690364480.0
98,whitehorse,60.7161,-135.0538,12.43,93.0,75.0,1.03,CA,1690364395.0
99,port elizabeth,-33.918,25.5701,22.16,37.0,0.0,2.06,ZA,1690364481.0
101,andergrove,-21.0833,149.1833,19.8,75.0,63.0,8.6,AU,1690364487.0
102,kotputli,27.7167,76.2,32.8,56.0,100.0,2.29,IN,1690364488.0
103,anadyr,64.75,177.4833,10.28,93.0,100.0,5.81,RU,1690364488.0
105,yuzhno-kurilsk,44.0306,145.8556,18.17,98.0,50.0,1.57,RU,1690364489.0
106,atafu village,-8.5421,-172.5159,28.89,75.0,83.0,8.69,TK,1690364490.0
107,vadso,70.0744,29.7487,12.49,87.0,75.0,3.09,NO,1690364490.0
108,ust-nera,64.5667,143.2,17.85,60.0,97.0,2.48,RU,1690364491.0
109,chonchi,-42.6128,-73.8092,6.18,95.0,100.0,0.75,CL,1690364492.0
110,hasaki,35.7333,140.8333,30.73,84.0,3.0,5.51,JP,1690364492.0
111,dudinka,69.4058,86.1778,26.46,42.0,6.0,2.92,RU,1690364493.0
112,san antonio de pale,-1.4014,5.6325,23.07,90.0,100.0,3.97,GQ,1690364493.0
113,darwin,-12.4611,130.8418,23.99,50.0,0.0,3.09,AU,1690364224.0
114,codrington,-38.2667,141.9667,9.18,87.0,100.0,3.86,AU,1690364494.0
115,kharp,66.8014,65.8081,17.46,82.0,100.0,2.73,RU,1690364495.0
116,muynoq,43.7683,59.0214,33.69,33.0,100.0,7.3,UZ,1690364495.0
117,laghouat,33.8,2.8651,35.79,12.0,3.0,0.88,DZ,1690364496.0
118,haiku-pauwela,20.9219,-156.3051,25.02,78.0,100.0,6.26,US,1690364496.0
119,ta`u,-14.2336,-169.5144,25.37,73.0,93.0,5.85,AS,1690364497.0
120,vincennes,48.85,2.4333,21.04,59.0,40.0,4.63,FR,1690364497.0
121,aitape,-3.1374,142.3475,26.89,87.0,90.0,4.27,PG,1690364498.0
122,navirai,-23.065,-54.1906,16.85,57.0,10.0,2.07,BR,1690364327.0
123,iron river,46.0927,-88.6423,19.42,72.0,100.0,2.63,US,1690364499.0
124,fale old settlement,-9.3852,-171.2468,28.17,78.0,87.0,8.61,TK,1690364500.0
125,zemio,5.0314,25.1361,27.33,62.0,98.0,3.1,CF,1690364500.0
126,fort bragg,35.139,-79.006,24.91,93.0,0.0,0.0,US,1690364501.0
127,vilyuysk,63.7553,121.6247,21.62,41.0,89.0,3.08,RU,1690364501.0
128,smara,26.7384,-11.6719,26.92,40.0,0.0,7.01,EH,1690364502.0
129,linfen,36.0889,111.5189,34.09,35.0,66.0,8.04,CN,1690364502.0
130,mejit,10.2753,170.8646,28.35,80.0,100.0,8.38,MH,1690364503.0
131,fiambala,-27.6871,-67.6149,8.95,47.0,0.0,2.12,AR,1690364503.0
132,lamu,-2.2717,40.902,28.12,71.0,38.0,6.64,KE,1690364504.0
133,mar del plata,-38.0023,-57.5575,11.16,98.0,100.0,6.71,AR,1690364459.0
134,college,64.8569,-147.8028,20.97,82.0,75.0,0.0,US,1690364505.0
135,gadzhiyevo,69.2551,33.3362,11.42,87.0,99.0,3.67,RU,1690364505.0
136,port lincoln,-34.7333,135.8667,12.47,75.0,0.0,5.15,AU,1690364506.0
137,wailua homesteads,22.0669,-159.378,25.44,89.0,100.0,7.2,US,1690364506.0
138,tazovsky,67.4667,78.7,21.8,47.0,93.0,4.72,RU,1690364507.0
139,port mathurin,-19.6833,63.4167,23.49,80.0,37.0,5.3,MU,1690364507.0
140,san luis de la loma,17.2706,-100.8939,25.91,78.0,82.0,1.65,MX,1690364508.0
141,essaouira,31.5125,-9.77,24.72,57.0,0.0,6.17,MA,1690364509.0
142,kynsperk nad ohri,50.1189,12.5303,15.86,45.0,56.0,4.91,CZ,1690364509.0
143,smithers,54.7804,-127.1743,13.18,88.0,100.0,0.0,CA,1690364412.0
144,cockburn town,21.4612,-71.1419,28.41,77.0,29.0,7.52,TC,1690364510.0
145,namibe,-15.1961,12.1522,20.51,68.0,2.0,3.15,AO,1690364511.0
146,pontianak,-0.0333,109.3333,31.99,52.0,20.0,6.17,ID,1690364511.0
147,tidjikja,18.5564,-11.4271,33.37,35.0,95.0,8.81,MR,1690364512.0
148,airuk,7.2772,168.8203,28.06,79.0,100.0,4.77,MH,1690364512.0
149,petite riviere,-20.1894,57.4453,25.95,66.0,45.0,1.71,MU,1690364513.0
150,plesetsk,62.708,40.2916,20.67,50.0,100.0,2.57,RU,1690364518.0
151,lisakovsk,52.5369,62.4936,28.2,35.0,85.0,4.62,KZ,1690364519.0
152,queenstown,-31.8976,26.8753,21.38,34.0,68.0,8.15,ZA,1690364473.0
153,vilyuchinsk,52.9306,158.4028,20.15,86.0,39.0,0.38,RU,1690364520.0
154,abalak,58.1286,68.5944,25.22,43.0,79.0,3.15,RU,1690364520.0
155,acarau,-2.8856,-40.12,25.15,78.0,21.0,7.33,BR,1690364521.0
156,chenzhou,25.8,113.0333,31.74,69.0,76.0,1.99,CN,1690364521.0
157,el granada,37.5027,-122.4694,18.07,86.0,100.0,6.17,US,1690364522.0
159,hlobyne,49.3878,33.2596,32.06,38.0,23.0,7.05,UA,1690364525.0
160,north haven,41.3909,-72.8595,19.47,96.0,75.0,0.0,US,1690364525.0
161,korla,41.7597,86.1469,35.79,17.0,0.0,3.82,CN,1690364526.0
162,nagqu,31.5,92.0,14.8,48.0,100.0,6.29,CN,1690364526.0
163,north baddesley,50.9779,-1.4375,20.28,56.0,20.0,1.54,GB,1690364527.0
164,istmina,5.1605,-76.684,22.78,98.0,90.0,1.17,CO,1690364527.0
165,roma,43.2128,-75.4557,18.84,96.0,0.0,1.54,US,1690364528.0
166,pukekohe east,-37.2,174.95,10.14,87.0,4.0,1.36,NZ,1690364529.0
167,vorkuta,67.5,64.0,15.81,88.0,100.0,0.5,RU,1690364529.0
168,bethel,41.3712,-73.414,18.66,91.0,100.0,1.54,US,1690364530.0
169,tralee,52.2704,-9.7026,16.14,88.0,100.0,2.57,IE,1690364531.0
170,aasiaat,68.7098,-52.8699,1.69,95.0,89.0,3.3,GL,1690364531.0
171,hamilton,39.1834,-84.5333,22.65,89.0,20.0,3.09,US,1690363993.0
172,howard springs,-12.497,131.047,23.95,57.0,37.0,2.48,AU,1690364533.0
173,bilibino,68.0546,166.4372,10.01,96.0,100.0,0.59,RU,1690364534.0
174,glace bay,46.1969,-59.957,19.94,94.0,75.0,2.24,CA,1690364535.0
175,zouerate,22.7187,-12.4521,34.18,15.0,0.0,6.65,MR,1690364535.0
177,ballina,-28.8667,153.5667,14.32,64.0,66.0,3.59,AU,1690364537.0
178,kodiak,57.79,-152.4072,12.73,94.0,0.0,1.54,US,1690364538.0
179,ulsteinvik,62.3432,5.8487,17.5,87.0,73.0,1.34,NO,1690364539.0
180,hammerfest,70.6634,23.6821,15.25,72.0,75.0,3.6,NO,1690364540.0
181,as sulayyil,20.4607,45.5779,44.14,5.0,29.0,1.93,SA,1690364540.0
182,hadibu,12.65,54.0333,26.87,66.0,86.0,13.43,YE,1690364541.0
183,westport,41.1415,-73.3579,19.99,97.0,0.0,0.89,US,1690364542.0
184,papao,-17.75,-149.55,24.82,88.0,28.0,2.25,PF,1690364542.0
185,boa vista,2.8197,-60.6733,23.99,100.0,75.0,2.06,BR,1690364543.0
186,shahbazpur,33.2748,72.2646,37.17,37.0,1.0,2.16,PK,1690364543.0
187,palembang,-2.9167,104.7458,31.05,66.0,40.0,3.6,ID,1690364544.0
188,taksimo,56.3444,114.8794,27.52,43.0,40.0,1.58,RU,1690364544.0
189,natchez,31.5604,-91.4032,22.12,88.0,0.0,0.0,US,1690364545.0
190,qarauyl,48.9451,79.255,30.3,22.0,94.0,5.06,KZ,1690364545.0
191,waingapu,-9.6567,120.2641,24.86,73.0,78.0,7.69,ID,1690364546.0
192,minas de marcona,-15.2119,-75.1103,11.39,89.0,78.0,5.89,PE,1690364546.0
193,sinabang,2.4803,96.3801,28.89,72.0,56.0,1.65,ID,1690364547.0
194,tadine,-21.55,167.8833,19.11,60.0,38.0,7.2,NC,1690364547.0
195,olonkinbyen,70.9221,-8.7187,5.03,93.0,100.0,4.36,SJ,1690364548.0
196,carutapera,-1.195,-46.02,24.48,94.0,75.0,2.27,BR,1690364548.0
197,neiafu,-18.65,-173.9833,22.92,66.0,94.0,5.06,TO,1690364549.0
199,nizhnyaya poyma,56.1622,97.1933,22.47,68.0,100.0,1.68,RU,1690364550.0
200,natal,-5.795,-35.2094,22.12,94.0,75.0,2.57,BR,1690364527.0
201,hithadhoo,-0.6,73.0833,28.17,79.0,100.0,6.43,MV,1690364556.0
202,richards bay,-28.783,32.0377,22.8,57.0,100.0,7.17,ZA,1690364458.0
203,karungdong,5.8844,121.263,28.04,82.0,18.0,5.05,PH,1690364557.0
204,lazaro cardenas,17.9583,-102.2,25.69,77.0,87.0,2.2,MX,1690364557.0
205,guane,22.2025,-84.0875,24.72,92.0,41.0,2.55,CU,1690364558.0
206,punta arenas,-53.15,-70.9167,-0.97,80.0,14.0,4.25,CL,1690364483.0
207,scarborough,54.2797,-0.4044,19.32,76.0,57.0,1.79,GB,1690364516.0
208,arraial do cabo,-22.9661,-42.0278,21.92,83.0,75.0,6.69,BR,1690364559.0
209,san jose del guaviare,2.5729,-72.6459,19.97,95.0,38.0,0.81,CO,1690364560.0
210,pervomayskoye,43.919,46.7102,32.52,28.0,0.0,6.73,RU,1690364560.0
211,walvis bay,-22.9575,14.5053,14.53,72.0,0.0,3.09,NA,1690364561.0
212,cabo san lucas,22.8909,-109.9124,29.23,77.0,100.0,1.34,MX,1690364402.0
213,santa ana,33.7456,-117.8678,26.34,91.0,0.0,2.57,US,1690364483.0
214,orsa,54.5153,30.4053,14.95,95.0,100.0,6.82,BY,1690364562.0
215,margaret river,-33.95,115.0667,11.59,81.0,100.0,11.05,AU,1690364518.0
216,asau,46.4333,26.4,25.51,41.0,46.0,1.59,RO,1690364564.0
217,chibougamau,49.9168,-74.3659,12.79,88.0,0.0,2.49,CA,1690364564.0
218,qamdo,31.1667,97.2333,14.53,50.0,85.0,3.19,CN,1690364565.0
219,novyy urgal,51.0736,132.5642,21.47,87.0,54.0,1.03,RU,1690364565.0
220,vorgashor,67.5833,63.95,16.7,83.0,100.0,0.69,RU,1690364566.0
221,chuhuyiv,49.8359,36.688,30.98,35.0,90.0,7.82,UA,1690364566.0
222,tura,25.5198,90.2201,29.66,72.0,99.0,2.73,IN,1690364567.0
223,lajere,11.9797,11.4443,34.36,37.0,87.0,5.7,NG,1690364567.0
224,san andres,12.5847,-81.7006,28.01,83.0,20.0,5.14,CO,1690364568.0
225,mugia,43.1041,-9.2179,21.62,82.0,15.0,4.44,ES,1690364568.0
226,inhambane,-23.865,35.3833,23.99,50.0,40.0,3.6,MZ,1690364569.0
227,beitbridge,-22.2167,30.0,23.75,39.0,0.0,5.0,ZW,1690364569.0
228,picota,-6.9197,-76.3304,21.44,88.0,18.0,0.21,PE,1690364570.0
229,khamis mushait,18.3064,42.7292,32.58,9.0,0.0,7.72,SA,1690364570.0
230,huron,41.1501,-82.5499,20.96,90.0,11.0,3.7,US,1690364571.0
231,sao joao da barra,-21.6403,-41.0511,20.05,88.0,97.0,7.28,BR,1690364571.0
232,kingston,17.997,-76.7936,27.53,84.0,20.0,4.63,JM,1690363913.0
233,waiuku,-37.25,174.75,10.7,70.0,7.0,2.47,NZ,1690364572.0
234,puerto leguizamo,-0.1934,-74.7819,20.93,98.0,80.0,0.64,CO,1690364573.0
235,nar'yan-mar,67.6713,53.087,23.35,50.0,89.0,2.38,RU,1690364573.0
236,mount isa,-20.7333,139.5,21.87,56.0,12.0,2.57,AU,1690364574.0
238,chingirlau,51.095,54.0814,30.61,30.0,26.0,4.2,KZ,1690364575.0
240,sanctuary point,-35.1114,150.629,15.42,80.0,44.0,2.67,AU,1690364576.0
241,ghanzi,-21.5667,21.7833,24.31,27.0,0.0,8.26,BW,1690364576.0
242,geraldton,-28.7667,114.6,15.23,63.0,75.0,6.69,AU,1690364577.0
243,kiunga,-6.1219,141.2906,23.31,95.0,100.0,1.15,PG,1690364577.0
244,galesong,-5.3166,119.3661,30.01,76.0,23.0,5.69,ID,1690364578.0
245,camacupa,-12.0167,17.4833,26.52,22.0,3.0,2.04,AO,1690364578.0
246,tual,-5.6667,132.75,25.78,82.0,76.0,10.1,ID,1690364579.0
247,fort mcmurray,56.7268,-111.381,10.77,93.0,75.0,3.09,CA,1690364579.0
248,port allen,30.4521,-91.2101,25.01,83.0,0.0,0.0,US,1690364580.0
249,puerto san jose,13.9256,-90.8244,24.91,73.0,40.0,2.54,GT,1690364580.0
250,georgetown,5.4112,100.3354,31.12,74.0,20.0,2.68,MY,1690364414.0
251,pangody,65.85,74.4859,26.37,53.0,71.0,5.73,RU,1690364586.0
252,juan de herrera,18.874,-71.2383,22.27,78.0,35.0,1.03,DO,1690364587.0
253,afaahiti,-17.75,-149.2833,23.93,86.0,37.0,2.64,PF,1690364587.0
254,jeddah,21.5169,39.2192,44.92,6.0,20.0,4.12,SA,1690364456.0
255,carnarvon,-24.8667,113.6333,17.73,59.0,1.0,6.14,AU,1690364589.0
256,lucapa,-8.4192,20.7447,31.69,20.0,16.0,2.7,AO,1690364589.0
257,berdigestyakh,62.0989,126.6992,21.66,39.0,17.0,3.69,RU,1690364590.0
258,okhotsk,59.3833,143.3,15.3,89.0,31.0,2.22,RU,1690364590.0
259,puerto armuelles,8.2833,-82.8667,27.83,70.0,100.0,1.34,PA,1690364591.0
260,urzhar,47.093,81.6294,39.3,9.0,39.0,5.39,KZ,1690364592.0
261,houghton,47.1219,-88.569,19.71,96.0,75.0,2.57,US,1690364592.0
262,kavaratti,10.5669,72.642,28.11,78.0,100.0,7.11,IN,1690364593.0
263,swiebodzin,52.2475,15.5336,16.83,43.0,100.0,5.15,PL,1690364570.0
264,yangchun,22.1667,111.7833,33.09,65.0,75.0,1.0,CN,1690364594.0
265,noumea,-22.2763,166.4572,21.67,97.0,62.0,6.91,NC,1690364175.0
266,veraval,20.9,70.3667,28.63,83.0,69.0,8.06,IN,1690364595.0
267,hobyo,5.3505,48.5268,27.4,67.0,34.0,12.44,SO,1690364595.0
268,skiathos,39.1623,23.4909,33.09,55.0,0.0,2.57,GR,1690364596.0
269,broome,42.2506,-75.833,18.15,96.0,7.0,1.62,US,1690364596.0
270,oneida,43.2001,-75.4663,18.88,96.0,0.0,1.54,US,1690364597.0
271,buka,40.8108,69.1986,45.2,7.0,3.0,3.57,UZ,1690364597.0
272,dwarka,22.2394,68.9678,29.23,80.0,90.0,8.6,IN,1690364598.0
274,vila velha,-20.3297,-40.2925,20.97,98.0,100.0,1.54,BR,1690364599.0
275,rio bueno,-40.3167,-72.9667,5.06,98.0,100.0,0.77,CL,1690364600.0
276,lagunas,-5.2269,-75.6753,22.04,88.0,76.0,0.8,PE,1690364600.0
277,luderitz,-26.6481,15.1594,15.44,56.0,55.0,1.5,NA,1690364601.0
278,sibiti,-3.6819,13.3499,28.15,49.0,37.0,2.14,CG,1690364601.0
279,la passe,45.5549,-0.8967,20.13,72.0,89.0,5.51,FR,1690364602.0
280,nguigmi,14.2495,13.1092,34.55,39.0,71.0,6.6,NE,1690364602.0
281,ishim,56.1128,69.4902,26.0,40.0,0.0,5.64,RU,1690364603.0
282,valley center,33.2184,-117.0342,23.82,79.0,0.0,0.22,US,1690364603.0
283,port alfred,-33.5906,26.891,24.1,34.0,71.0,2.66,ZA,1690364604.0
284,paita,-5.0892,-81.1144,20.67,82.0,91.0,3.77,PE,1690364604.0
285,tabou,4.423,-7.3528,25.89,84.0,93.0,3.35,CI,1690364605.0
286,kongsvinger,60.1905,11.9977,16.92,64.0,87.0,2.95,NO,1690364606.0
287,fort-shevchenko,44.5086,50.263,27.48,55.0,0.0,6.05,KZ,1690364606.0
288,aripuana,-9.1667,-60.6333,19.32,67.0,14.0,0.23,BR,1690364607.0
290,miura,35.14,139.6192,31.99,81.0,6.0,5.36,JP,1690364608.0
291,springfield,37.2153,-93.2982,27.21,79.0,0.0,5.14,US,1690364482.0
292,kangding,30.0513,101.9603,17.63,94.0,98.0,2.59,CN,1690364609.0
293,pyhajarvi,67.0701,27.2176,18.56,57.0,93.0,1.8,FI,1690364610.0
294,manturovo,58.3353,44.7619,23.44,65.0,86.0,3.62,RU,1690364610.0
295,fortuna,40.5982,-124.1573,14.39,93.0,100.0,0.0,US,1690364611.0
296,rongelap,11.1635,166.8941,28.56,80.0,100.0,7.88,MH,1690364611.0
297,petropavlovsk-kamchatsky,53.0452,158.6483,19.33,73.0,0.0,1.0,RU,1690364612.0
298,tazacorte,28.629,-17.9293,23.54,84.0,75.0,5.66,ES,1690364612.0
300,piti village,13.4626,144.6933,29.49,83.0,40.0,7.2,GU,1690364618.0
301,acapulco de juarez,16.8634,-99.8901,25.9,89.0,100.0,1.54,MX,1690364619.0
302,shush,32.1942,48.2436,46.89,5.0,0.0,3.78,IR,1690364619.0
303,julio de castilhos,-29.2269,-53.6817,15.26,91.0,100.0,3.49,BR,1690364620.0
304,maymana,35.9214,64.7836,38.62,9.0,0.0,3.46,AF,1690364620.0
305,nema,57.5067,50.5011,24.26,45.0,53.0,2.37,RU,1690364621.0
306,estevan,49.1334,-102.9842,15.11,72.0,0.0,4.12,CA,1690364621.0
307,tsarevo,42.1667,27.85,38.17,27.0,1.0,5.94,BG,1690364622.0
308,cabedelo,-6.9811,-34.8339,22.37,80.0,5.0,5.14,BR,1690364622.0
309,alesund,62.4723,6.1549,17.51,88.0,40.0,1.03,NO,1690364623.0
310,oriximina,-1.7656,-55.8661,22.69,68.0,4.0,0.81,BR,1690364331.0
311,concepcion,-36.827,-73.0498,5.89,100.0,100.0,3.6,CL,1690364624.0
312,rio grande,-32.035,-52.0986,15.53,98.0,100.0,5.91,BR,1690364624.0
313,bernalillo,35.05,-106.6673,27.41,35.0,20.0,2.57,US,1690364625.0
314,praia,14.9215,-23.5087,27.3,78.0,75.0,8.23,CV,1690364546.0
315,kruisfontein,-34.0033,24.7314,22.23,26.0,88.0,2.25,ZA,1690364626.0
316,magdagachi,53.45,125.8,26.96,46.0,39.0,0.69,RU,1690364627.0
317,grand falls-windsor,48.9332,-55.6649,16.39,94.0,57.0,2.24,CA,1690364627.0
318,villa gesell,-37.2639,-56.973,10.59,98.0,100.0,6.07,AR,1690364628.0
319,adis zemen,12.1167,37.7833,20.52,73.0,100.0,1.76,ET,1690364628.0
320,lompoc,34.6391,-120.4579,22.1,96.0,100.0,0.0,US,1690364629.0
322,tenkodogo,11.78,-0.3697,30.44,57.0,9.0,4.59,BF,1690364630.0
323,mulayjah,27.271,48.4242,46.96,5.0,23.0,1.5,SA,1690364631.0
324,chul'man,56.8479,124.9104,22.97,70.0,92.0,0.38,RU,1690364631.0
325,la mira,18.035,-102.3266,25.41,76.0,92.0,2.04,MX,1690364632.0
326,pariaman,-0.619,100.12,30.03,74.0,96.0,2.13,ID,1690364632.0
328,tolanaro,-25.0319,46.9987,23.04,43.0,40.0,3.6,MG,1690364633.0
329,wenchang,30.904,118.4887,30.29,79.0,81.0,2.2,CN,1690364634.0
330,bikenibeu village,1.3673,173.1241,27.98,78.0,75.0,1.54,KI,1690364634.0
331,tofol,5.3248,163.0078,28.58,72.0,78.0,3.39,FM,1690364635.0
332,mandiana,10.6333,-8.6833,26.9,73.0,47.0,2.69,GN,1690364636.0
334,potsdam,52.3989,13.0657,21.27,56.0,100.0,5.41,DE,1690364637.0
335,guerrero negro,27.9769,-114.0611,19.13,88.0,43.0,3.24,MX,1690364637.0
336,nemuro,43.3236,145.575,18.07,96.0,89.0,2.05,JP,1690364638.0
338,susuman,62.7833,148.1667,15.41,72.0,63.0,3.37,RU,1690364640.0
339,quirinopolis,-18.4483,-50.4517,19.24,58.0,3.0,1.84,BR,1690364641.0
340,gebeit,21.0667,36.3167,41.42,8.0,99.0,5.02,SD,1690364641.0
341,marsh harbour,26.5412,-77.0636,29.06,72.0,83.0,4.48,BS,1690364642.0
342,bubaque,11.2833,-15.8333,26.75,82.0,100.0,5.84,GW,1690364642.0
343,farafangana,-22.8167,47.8333,22.01,56.0,78.0,6.71,MG,1690364643.0
344,baruun-urt,46.6806,113.2792,29.15,31.0,71.0,5.79,MN,1690364644.0
345,kati,12.7441,-8.0726,27.67,57.0,69.0,2.42,ML,1690364645.0
346,souillac,-20.5167,57.5167,26.21,69.0,40.0,2.57,MU,1690364645.0
347,milford haven,51.7128,-5.0341,16.17,91.0,100.0,7.96,GB,1690364646.0
348,berezovyy,51.6667,135.7,21.08,95.0,94.0,1.89,RU,1690364647.0
349,sao vicente,-23.9631,-46.3919,21.82,26.0,12.0,2.03,BR,1690364648.0
350,raja,8.4596,25.678,22.24,97.0,100.0,1.98,SS,1690364653.0
351,icano,-28.9193,-65.3282,8.1,90.0,80.0,1.71,AR,1690364654.0
352,mount pearl,47.5166,-52.7813,19.62,88.0,40.0,4.12,CA,1690364655.0
353,portland,45.5234,-122.6762,16.99,75.0,0.0,4.12,US,1690364616.0
354,russkaya polyana,49.417,31.9201,32.64,37.0,16.0,4.74,UA,1690364656.0
355,ritchie,-29.038,24.6028,18.56,31.0,15.0,10.62,ZA,1690364656.0
356,myitkyina,25.3833,97.4,30.84,74.0,42.0,1.33,MM,1690364657.0
357,cadale,2.7603,46.3222,27.0,68.0,71.0,9.75,SO,1690364657.0
358,kloulklubed,7.0419,134.2556,24.28,79.0,100.0,6.59,PW,1690364658.0
359,sisimiut,66.9395,-53.6735,8.47,73.0,4.0,2.63,GL,1690364659.0
361,srivardhan,18.0333,73.0167,25.85,92.0,100.0,7.36,IN,1690364660.0
362,ketchikan,55.3422,-131.6461,16.26,77.0,100.0,1.54,US,1690364660.0
363,coronel dorrego,-38.7187,-61.2873,6.46,80.0,92.0,6.52,AR,1690364661.0
364,bang saphan,11.2126,99.5117,29.21,73.0,98.0,3.87,TH,1690364661.0
365,okahandja,-21.9833,16.9167,23.22,19.0,2.0,1.48,NA,1690364662.0
366,tarko-sale,64.9225,77.785,26.3,48.0,71.0,4.42,RU,1690364662.0
367,kone,-21.0595,164.8658,16.79,69.0,11.0,2.88,NC,1690364663.0
368,inyonga,-6.7167,32.0667,28.15,22.0,12.0,3.23,TZ,1690364663.0
369,princeville,45.7668,-61.2985,19.06,96.0,0.0,1.03,CA,1690364664.0
370,rawson,-43.3002,-65.1023,3.48,73.0,37.0,8.13,AR,1690364447.0
371,oliveira dos brejinhos,-12.3169,-42.8961,18.21,72.0,0.0,1.87,BR,1690364665.0
372,portoferraio,42.8115,10.3146,27.05,61.0,0.0,3.6,IT,1690364666.0
373,kikwit,-5.041,18.8162,36.91,21.0,27.0,1.08,CD,1690364666.0
374,kapuskasing,49.4169,-82.4331,14.05,82.0,0.0,2.57,CA,1690364667.0
375,callao,-12.0667,-77.15,20.16,73.0,75.0,5.14,PE,1690364667.0
376,burang,30.25,81.1667,11.18,87.0,100.0,1.9,CN,1690364668.0
377,preobrazheniye,42.9019,133.9064,22.06,93.0,97.0,2.6,RU,1690364668.0
378,xining,36.6167,101.7667,15.61,86.0,100.0,2.4,CN,1690364669.0
379,hami,42.8,93.45,39.83,7.0,0.0,5.28,CN,1690364669.0
380,aginskoye,51.1,114.53,19.71,84.0,96.0,5.36,RU,1690364670.0
381,jesus maria,-30.9815,-64.0942,9.17,81.0,6.0,3.78,AR,1690364670.0
382,saint-joseph,-21.3667,55.6167,24.71,76.0,10.0,3.79,RE,1690364671.0
383,salahonda,2.1019,-78.7217,25.69,87.0,100.0,5.07,CO,1690364672.0
384,oltinko'l,40.8011,72.1634,45.07,9.0,0.0,3.33,UZ,1690364672.0
385,ciudad madero,22.2667,-97.8333,26.14,90.0,94.0,2.76,MX,1690364673.0
386,gao,16.6362,1.637,36.16,31.0,88.0,5.76,ML,1690364673.0
387,harstad,68.799,16.5293,19.66,88.0,27.0,1.79,NO,1690364675.0
388,jinchang,38.4953,102.1739,29.21,23.0,100.0,1.81,CN,1690364675.0
389,selfoss,63.9331,-20.9971,13.91,71.0,99.0,3.47,IS,1690364676.0
390,luanda,-8.8368,13.2343,24.0,73.0,75.0,1.03,AO,1690364456.0
391,kibre mengist,5.8833,38.9833,16.39,83.0,100.0,2.98,ET,1690364677.0
392,esmeraldas,-19.7625,-44.3139,17.58,93.0,3.0,1.78,BR,1690364679.0
393,kununurra,-15.7667,128.7333,19.99,52.0,7.0,0.0,AU,1690364679.0
394,pisco,-13.7,-76.2167,17.03,82.0,100.0,4.12,PE,1690364680.0
395,nishinoomote,30.7333,131.0,29.31,89.0,40.0,4.63,JP,1690364680.0
396,mahina,-17.5065,-149.489,24.87,83.0,75.0,4.12,PF,1690364681.0
397,onega,63.9061,38.1404,19.88,62.0,52.0,1.62,RU,1690364681.0
398,anapa,44.8908,37.3239,29.19,58.0,0.0,6.0,RU,1690364682.0
399,the pas,53.8251,-101.2541,19.01,59.0,100.0,5.14,CA,1690364682.0
400,bel ombre,-4.6167,55.4167,27.91,78.0,40.0,7.2,SC,1690364688.0
401,nuku'alofa,-21.1333,-175.2,18.19,94.0,75.0,1.54,TO,1690364688.0
402,vernon,50.2581,-119.2691,15.34,66.0,74.0,0.51,CA,1690364689.0
403,coquimbo,-29.9533,-71.3436,11.85,100.0,100.0,1.54,CL,1690364349.0
404,rurrenabaque,-14.4413,-67.5278,20.8,86.0,52.0,0.56,BO,1690364690.0
405,al hudaydah,14.7978,42.9545,37.47,42.0,41.0,6.18,YE,1690364690.0
406,laem sing,12.4816,102.0738,29.19,79.0,69.0,4.69,TH,1690364691.0
407,ancud,-41.8697,-73.8203,7.69,78.0,100.0,1.11,CL,1690364691.0
409,businga,3.3333,20.8833,27.72,61.0,98.0,1.83,CD,1690364693.0
410,newman,37.3138,-121.0208,23.49,74.0,0.0,1.73,US,1690364694.0
411,dedza,-14.3779,34.3332,19.83,24.0,1.0,4.28,MW,1690364694.0
412,kailua-kona,19.6406,-155.9956,26.98,89.0,40.0,2.06,US,1690364622.0
413,datong,40.0936,113.2914,26.38,53.0,69.0,3.37,CN,1690364574.0
414,bucerias,20.75,-105.3333,27.21,87.0,100.0,2.24,MX,1690364697.0
415,kourou,5.1552,-52.6478,24.03,92.0,33.0,1.67,GF,1690364697.0
416,novopavlovsk,43.9622,43.6342,28.67,36.0,0.0,4.72,RU,1690364698.0
417,broken hill,-31.95,141.4333,13.4,43.0,0.0,3.45,AU,1690364643.0
418,gold coast,-28.0,153.4333,16.13,78.0,40.0,2.06,AU,1690364699.0
419,kafr ad dawwar,31.1339,30.1284,33.26,58.0,0.0,3.6,EG,1690364699.0
421,road town,18.4167,-64.6167,28.05,79.0,100.0,9.08,VG,1690364700.0
422,seven pagodas,12.6264,80.1722,31.03,72.0,100.0,7.18,IN,1690364701.0
423,pimentel,-6.8367,-79.9342,22.16,83.0,100.0,2.57,PE,1690364702.0
424,banca,46.3,27.8,38.67,18.0,56.0,6.16,RO,1690364703.0
425,xilin hot,43.9667,116.0333,21.83,76.0,79.0,8.23,CN,1690364703.0
426,puerto aysen,-45.4,-72.7,-0.01,98.0,100.0,1.27,CL,1690364704.0
427,tromso,69.6496,18.957,17.01,67.0,75.0,1.03,NO,1690364705.0
428,arno,60.1167,18.6333,19.96,52.0,16.0,3.3,SE,1690364705.0
429,mancio lima,-7.6142,-72.8958,21.62,84.0,21.0,1.12,BR,1690364706.0
430,greymouth,-42.4667,171.2,5.56,80.0,77.0,1.16,NZ,1690364706.0
431,quartu sant'elena,39.2419,9.1839,28.95,40.0,20.0,10.29,IT,1690364461.0
432,bodaybo,57.8506,114.1933,28.41,53.0,29.0,1.48,RU,1690364707.0
433,salinopolis,-0.6136,-47.3561,25.36,88.0,85.0,3.35,BR,1690364708.0
434,west bay,19.3667,-81.4167,27.78,87.0,96.0,0.89,KY,1690364709.0
435,poronaysk,49.2167,143.1167,14.79,99.0,100.0,2.42,RU,1690364709.0
436,yinchuan,38.4681,106.2731,35.74,18.0,90.0,3.52,CN,1690364710.0
437,tamandare,-8.7597,-35.1047,24.09,80.0,12.0,3.32,BR,1690364711.0
438,lemvig,56.5486,8.3102,14.0,90.0,93.0,10.52,DK,1690364711.0
439,georgievka,49.3314,81.5761,33.96,18.0,37.0,5.11,KZ,1690364712.0
440,coari,-4.085,-63.1414,22.03,68.0,4.0,1.19,BR,1690364712.0
441,siwa oasis,29.2041,25.5195,37.39,17.0,0.0,4.67,EG,1690364713.0
442,praia da vitoria,38.7333,-27.0667,22.64,83.0,75.0,3.87,PT,1690364713.0
443,andilamena,-17.0167,48.5833,19.43,70.0,99.0,5.52,MG,1690364714.0
444,gaspe,48.8334,-64.4819,16.95,100.0,75.0,0.0,CA,1690364715.0
445,nouadhibou,20.931,-17.0347,24.99,65.0,27.0,7.2,MR,1690364715.0
446,ust'-ilimsk,58.0006,102.6619,25.85,49.0,100.0,1.16,RU,1690364716.0
447,boyolangu,-8.1181,111.8935,23.51,82.0,12.0,3.35,ID,1690364716.0
448,new norfolk,-42.7826,147.0587,12.06,80.0,100.0,1.68,AU,1690364717.0
449,zhukovo,55.0318,36.744,25.88,59.0,94.0,6.26,RU,1690364717.0
450,forster,-32.1667,152.5167,9.1,97.0,0.0,2.09,AU,1690364723.0
452,riyadh,24.6877,46.7219,45.08,6.0,86.0,3.9,SA,1690364606.0
453,manaure,11.7751,-72.4445,26.22,89.0,60.0,2.53,CO,1690364725.0
454,verkhnevilyuysk,63.4453,120.3167,22.46,47.0,100.0,2.77,RU,1690364725.0
455,dampit,-8.2116,112.7493,21.91,83.0,24.0,2.4,ID,1690364726.0
456,monrovia,6.3005,-10.7969,24.28,91.0,100.0,1.51,LR,1690364727.0
457,mazagao,-0.115,-51.2894,24.03,90.0,34.0,1.35,BR,1690364727.0
458,sandnessjoen,66.0217,12.6316,19.29,63.0,75.0,2.06,NO,1690364728.0
459,freetown,8.484,-13.2299,26.48,82.0,98.0,1.52,SL,1690364729.0
460,kyren,51.6828,102.1408,24.44,49.0,37.0,2.7,RU,1690364729.0
461,saint marys,30.7305,-81.5465,26.01,86.0,0.0,0.0,US,1690364730.0
462,vila franca do campo,37.7167,-25.4333,26.22,64.0,7.0,1.02,PT,1690364730.0
463,isla del bosque,22.7333,-105.85,26.52,88.0,100.0,2.3,MX,1690364731.0
464,kugesi,56.029,47.2925,21.81,83.0,75.0,3.0,RU,1690364731.0
465,nova sintra,14.8667,-24.7167,22.79,85.0,100.0,4.58,CV,1690364732.0
466,eastham,41.8301,-69.9739,21.64,84.0,57.0,0.89,US,1690364733.0
467,prince george,53.9166,-122.753,11.81,88.0,100.0,5.66,CA,1690364733.0
468,bandar lampung,-5.4254,105.258,26.61,75.0,60.0,2.73,ID,1690364734.0
469,lafayette,30.2335,-92.0668,24.43,93.0,0.0,0.0,US,1690364734.0
470,pagar alam,-4.0167,103.2667,24.07,94.0,75.0,0.88,ID,1690364735.0
471,qaqortoq,60.7167,-46.0333,5.15,93.0,48.0,1.74,GL,1690364735.0
472,yigo village,13.5361,144.8886,28.62,84.0,40.0,7.72,GU,1690364736.0
473,kutum,14.2,24.6667,31.2,31.0,100.0,8.8,SD,1690364736.0
474,saint-philippe,-21.3585,55.7679,24.77,75.0,10.0,4.1,RE,1690364737.0
475,alo,7.4178,6.7371,28.95,73.0,77.0,1.76,NG,1690364738.0
476,weno,7.4515,151.8468,26.97,100.0,40.0,1.54,FM,1690364738.0
477,deming,32.2687,-107.7586,23.94,27.0,0.0,0.0,US,1690364739.0
478,savanna-la-mar,18.219,-78.1332,27.97,91.0,86.0,2.09,JM,1690364739.0
479,kibaya,-5.3,36.5667,24.17,28.0,60.0,3.63,TZ,1690364740.0
480,grudziadz,53.4841,18.7537,22.13,51.0,99.0,4.76,PL,1690364740.0
481,barra de santo antonio,-9.4047,-35.5072,19.6,77.0,15.0,2.93,BR,1690364741.0
482,sola,-13.8833,167.55,24.96,81.0,100.0,12.2,VU,1690364742.0
483,phalodi,27.1333,72.3667,34.9,50.0,100.0,3.73,IN,1690364742.0
484,puerto francisco de orellana,-0.4667,-76.9667,21.04,90.0,100.0,0.41,EC,1690364743.0
485,port shepstone,-30.7414,30.455,21.06,47.0,35.0,7.06,ZA,1690364743.0
486,kill devil hills,36.0307,-75.676,25.55,91.0,40.0,2.57,US,1690364744.0
487,woodlake,37.4211,-77.6793,21.64,93.0,0.0,1.54,US,1690364744.0
488,mitsamiouli,-11.3847,43.2844,29.16,65.0,40.0,9.77,KM,1690364745.0
489,barakani,-12.1356,44.4317,25.64,70.0,69.0,5.86,KM,1690364745.0
490,guarapari,-20.6667,-40.4975,20.5,90.0,88.0,3.64,BR,1690364746.0
491,keene,42.9337,-72.2781,18.52,95.0,100.0,0.0,US,1690364746.0
492,zhuanghe,39.7008,122.9911,26.13,89.0,97.0,1.89,CN,1690364747.0
493,tanout,14.9709,8.8879,33.37,41.0,99.0,5.57,NE,1690364748.0
494,guiratinga,-16.3494,-53.7583,17.45,53.0,0.0,1.79,BR,1690364748.0
495,saynshand,44.8824,110.1163,31.37,26.0,5.0,4.03,MN,1690364749.0
496,richmond,37.5538,-77.4603,22.03,93.0,0.0,1.54,US,1690364515.0
497,oulunsalo,64.9346,25.4112,19.47,64.0,40.0,2.68,FI,1690364750.0
498,pundong,-7.9522,110.3486,24.53,78.0,36.0,5.53,ID,1690364751.0
499,lethem,3.3803,-59.7968,23.32,94.0,98.0,2.06,GY,1690364751.0
500,labytnangi,66.6572,66.4183,18.49,81.0,100.0,3.0,RU,1690364757.0
501,sharlyk,52.9167,54.75,29.05,34.0,25.0,5.05,RU,1690364757.0
502,wankyi,7.7392,-2.1046,24.41,89.0,100.0,2.5,GH,1690364758.0
503,pangoa,-12.1167,-73.0,20.57,75.0,44.0,1.08,PE,1690364758.0
504,garoua boulai,5.8833,14.55,23.53,83.0,100.0,0.6,CM,1690364759.0
506,konarka,19.9,86.1167,28.22,74.0,58.0,6.4,IN,1690364760.0
507,lata,40.1629,-8.3327,27.49,43.0,0.0,1.57,PT,1690364761.0
508,mgandu,-5.95,34.1333,25.35,24.0,16.0,4.24,TZ,1690364761.0
509,bandarbeyla,9.4942,50.8122,30.94,49.0,17.0,14.1,SO,1690364762.0
510,heihe,50.2441,127.4902,27.32,64.0,50.0,2.33,CN,1690364762.0
511,ocean shores,46.9737,-124.1563,14.0,93.0,0.0,3.09,US,1690364510.0
512,nhamunda,-2.1861,-56.7131,22.07,69.0,3.0,0.71,BR,1690364763.0
513,zgorzelec,51.1494,15.0084,20.12,68.0,95.0,2.24,PL,1690364764.0
515,akhmim,26.5622,31.745,37.11,13.0,6.0,2.8,EG,1690364765.0
516,san carlos del zulia,9.0,-71.9135,23.82,98.0,100.0,1.8,VE,1690364766.0
517,midvagur,62.0511,-7.1939,11.46,66.0,85.0,3.09,FO,1690364766.0
518,mount gambier,-37.8333,140.7667,8.66,90.0,100.0,2.29,AU,1690364473.0
519,fada,9.5667,8.3,26.92,67.0,96.0,1.89,NG,1690364768.0
520,galveston,29.3669,-94.9669,28.33,91.0,0.0,2.95,US,1690364551.0
521,oasis,33.4659,-116.0989,37.02,23.0,0.0,6.17,US,1690364769.0
522,thinadhoo,0.5333,72.9333,28.32,79.0,97.0,5.9,MV,1690364770.0
523,flekkefjord,58.2971,6.6607,15.53,76.0,71.0,3.37,NO,1690364771.0
524,mayya,61.7333,130.2811,25.62,47.0,87.0,3.26,RU,1690364772.0
525,pirapora,-17.345,-44.9419,15.78,84.0,0.0,0.62,BR,1690364773.0
526,egilsstadir,65.2653,-14.3948,6.95,87.0,75.0,3.09,IS,1690364773.0
527,yarmouth,41.7057,-70.2286,21.65,94.0,0.0,1.54,US,1690364774.0
528,keren,15.7778,38.4581,28.55,39.0,67.0,2.99,ER,1690364775.0
529,juwana,-6.715,111.1514,27.97,64.0,9.0,3.95,ID,1690364776.0
530,coxim,-18.5067,-54.76,18.6,43.0,0.0,1.77,BR,1690364679.0
531,santiago de cao,-7.9589,-79.2392,21.07,83.0,100.0,3.6,PE,1690364777.0
532,sterling,39.0062,-77.4286,21.17,91.0,0.0,2.24,US,1690364777.0
533,guthrie,35.8789,-97.4253,29.18,50.0,0.0,6.17,US,1690364778.0
534,upper grand lagoon,30.1633,-85.7408,25.58,89.0,0.0,1.54,US,1690364779.0
535,al jawf,29.5,38.75,38.54,13.0,4.0,1.64,SA,1690364779.0
536,vuktyl,63.8567,57.3094,24.18,40.0,18.0,3.08,RU,1690364780.0
537,hanko,59.8333,22.95,20.47,79.0,47.0,5.81,FI,1690364780.0
538,hanceville,34.0607,-86.7675,22.87,81.0,0.0,0.12,US,1690364781.0
539,miyaly,48.8844,53.7836,29.88,39.0,6.0,3.86,KZ,1690364782.0
540,polyarnyy,69.1989,33.4478,11.3,89.0,100.0,3.64,RU,1690364782.0
541,manokwari,-0.8667,134.0833,27.18,78.0,63.0,0.77,ID,1690364783.0
542,flying fish cove,-10.4217,105.6791,25.82,83.0,75.0,4.63,CX,1690364783.0
543,sinnar,13.5691,33.5672,31.3,51.0,96.0,7.12,SD,1690364784.0
544,haifa,32.8156,34.9892,35.16,49.0,20.0,3.6,IL,1690364784.0
545,chernyshevskiy,63.0128,112.4714,19.4,86.0,64.0,4.64,RU,1690364785.0
546,xiongzhou,25.1167,114.3,32.52,61.0,67.0,3.68,CN,1690364786.0
547,robertsdale,30.5538,-87.7119,26.4,81.0,0.0,0.0,US,1690364787.0
548,kaa-khem,51.6833,94.7333,20.56,56.0,72.0,1.19,RU,1690364787.0
549,trondheim,63.4305,10.3951,19.95,80.0,100.0,0.89,NO,1690364565.0
550,salekhard,66.53,66.6019,17.78,86.0,100.0,2.61,RU,1690364794.0
551,onguday,50.75,86.15,27.5,32.0,60.0,2.06,RU,1690364794.0
552,sungai penuh,-2.0833,101.3833,22.06,89.0,76.0,1.56,ID,1690364795.0
553,banda aceh,5.5577,95.3222,30.12,66.0,100.0,6.74,ID,1690364795.0
554,pointe-noire,-4.7761,11.8635,24.04,78.0,75.0,2.57,CG,1690364796.0
555,flin flon,54.7682,-101.865,14.15,76.0,93.0,4.86,CA,1690364797.0
556,isangel,-19.55,169.2667,20.89,62.0,100.0,6.7,VU,1690364797.0
557,prado,-17.3411,-39.2208,22.41,78.0,98.0,4.02,BR,1690364798.0
558,albu kamal,34.45,40.9186,41.76,12.0,0.0,6.76,SY,1690364798.0
559,puerto real,36.5282,-6.1901,25.07,73.0,40.0,5.14,ES,1690364799.0
560,sake,-1.5736,29.045,26.34,36.0,55.0,2.37,CD,1690364799.0
